{
  "type": "FeatureCollection",
  "features": [
    {
      "type": "Feature",
      "properties": {
        "Name": "Shakti",
        "url": "https://www.facebook.com/pages/yogashaktistudio/200195010014282"
      },
      "geometry": {
        "type": "Point",
        "coordinates": [
          -96.7182284,
          17.0686932
        ]
      }
    },
    {
      "type": "Feature",
      "properties": {
        "Name": "Prana Yoga",
        "url": "https://www.facebook.com/pages/Prana-Yoga-Oaxaca/316968431685502"
      },
      "geometry": {
        "type": "Point",
        "coordinates": [
          -96.726636,
          17.068497
        ]
      }
    },
    {
      "type": "Feature",
      "properties": {
        "Name": "SAT NAM",
        "url": "https://www.facebook.com/satnamyogaymasajes"
      },
      "geometry": {
        "type": "Point",
        "coordinates": [
          -96.7268531,
          17.0671409
        ]
      }
    },
    {
      "type": "Feature",
      "properties": {
        "Name": "Alosja Yoga",
        "url": "https://www.facebook.com/alosjayoga"
      },
      "geometry": {
        "type": "Point",
        "coordinates": [
          -96.720818,
          17.070049
        ]
      }
    },
    {
      "type": "Feature",
      "properties": {
        "Name": "Cicsh",
        "url": "https://www.facebook.com/cicshoaxaca?fref=ts"
      },
      "geometry": {
        "type": "Point",
        "coordinates": [
          -96.7189653,
          17.0838369
        ]
      }
    },
    {
      "type": "Feature",
      "properties": {
        "Name": "Casa del Angel",
        "url": "http://www.casadelangel.com.mx/home2.php"
      },
      "geometry": {
        "type": "Point",
        "coordinates": [
           -96.7208077,
           17.0699654
        ]
      }
    }
  ]
}
